[
  {
    "departamento": "ANTIOQUIA",
    "municipio": "Abejorral",
    "lat": 5.789315,
    "lng": -75.428739,
    "nivel_riesgo": "medio",
    "contexto": "Información preliminar de riesgo",
    "estructuras_zona": "Sin datos",
    "novedades": "Novedades no especificadas"
  },
  {
    "departamento": "ANTIOQUIA",
    "municipio": "Abriaquí",
    "lat": 6.632282,
    "lng": -76.064304,
    "nivel_riesgo": "medio",
    "contexto": "Información preliminar de riesgo",
    "estructuras_zona": "Sin datos",
    "novedades": "Novedades no especificadas"
  },
  {
    "departamento": "ANTIOQUIA",
    "municipio": "Alejandría",
    "lat": 6.376061,
    "lng": -75.141346,
    "nivel_riesgo": "medio",
    "contexto": "Información preliminar de riesgo",
    "estructuras_zona": "Sin datos",
    "novedades": "Novedades no especificadas"
  },
  {
    "departamento": "ANTIOQUIA",
    "municipio": "Amagá",
    "lat": 6.038708,
    "lng": -75.702188,
    "nivel_riesgo": "medio",
    "contexto": "Información preliminar de riesgo",
    "estructuras_zona": "Sin datos",
    "novedades": "Novedades no especificadas"
  },
  {
    "departamento": "ANTIOQUIA",
    "municipio": "Amalfi",
    "lat": 6.909655,
    "lng": -75.077501,
    "nivel_riesgo": "medio",
    "contexto": "Información preliminar de riesgo",
    "estructuras_zona": "Sin datos",
    "novedades": "Novedades no especificadas"
  },
  {
    "departamento": "ANTIOQUIA",
    "municipio": "Andes",
    "lat": 5.657194,
    "lng": -75.878828,
    "nivel_riesgo": "medio",
    "contexto": "Información preliminar de riesgo",
    "estructuras_zona": "Sin datos",
    "novedades": "Novedades no especificadas"
  },
  {
    "departamento": "ANTIOQUIA",
    "municipio": "Angelópolis",
    "lat": 6.109719,
    "lng": -75.711389,
    "nivel_riesgo": "medio",
    "contexto": "Información preliminar de riesgo",
    "estructuras_zona": "Sin datos",
    "novedades": "Novedades no especificadas"
  },
  {
    "departamento": "ANTIOQUIA",
    "municipio": "Angostura",
    "lat": 6.885175,
    "lng": -75.335116,
    "nivel_riesgo": "medio",
    "contexto": "Información preliminar de riesgo",
    "estructuras_zona": "Sin datos",
    "novedades": "Novedades no especificadas"
  },
  {
    "departamento": "ANTIOQUIA",
    "municipio": "Anorí",
    "lat": 7.074703,
    "lng": -75.148355,
    "nivel_riesgo": "medio",
    "contexto": "Información preliminar de riesgo",
    "estructuras_zona": "Sin datos",
    "novedades": "Novedades no especificadas"
  },
  {
    "departamento": "ANTIOQUIA",
    "municipio": "Anzá",
    "lat": 6.302641,
    "lng": -75.854442,
    "nivel_riesgo": "medio",
    "contexto": "Información preliminar de riesgo",
    "estructuras_zona": "Sin datos",
    "novedades": "Novedades no especificadas"
  },
  {
    "departamento": "ANTIOQUIA",
    "municipio": "Apartadó",
    "lat": 7.882968,
    "lng": -76.625279,
    "nivel_riesgo": "medio",
    "contexto": "Información preliminar de riesgo",
    "estructuras_zona": "Sin datos",
    "novedades": "Novedades no especificadas"
  },
  {
    "departamento": "ANTIOQUIA",
    "municipio": "Arboletes",
    "lat": 8.849317,
    "lng": -76.426708,
    "nivel_riesgo": "medio",
    "contexto": "Información preliminar de riesgo",
    "estructuras_zona": "Sin datos",
    "novedades": "Novedades no especificadas"
  },
  {
    "departamento": "ANTIOQUIA",
    "municipio": "Argelia",
    "lat": 5.731474,
    "lng": -75.14107,
    "nivel_riesgo": "medio",
    "contexto": "Información preliminar de riesgo",
    "estructuras_zona": "Sin datos",
    "novedades": "Novedades no especificadas"
  },
  {
    "departamento": "ANTIOQUIA",
    "municipio": "Armenia",
    "lat": 6.155667,
    "lng": -75.786647,
    "nivel_riesgo": "medio",
    "contexto": "Información preliminar de riesgo",
    "estructuras_zona": "Sin datos",
    "novedades": "Novedades no especificadas"
  },
  {
    "departamento": "ANTIOQUIA",
    "municipio": "Barbosa",
    "lat": 6.439195,
    "lng": -75.331627,
    "nivel_riesgo": "medio",
    "contexto": "Información preliminar de riesgo",
    "estructuras_zona": "Sin datos",
    "novedades": "Novedades no especificadas"
  },
  {
    "departamento": "ANTIOQUIA",
    "municipio": "Bello",
    "lat": 6.333587,
    "lng": -75.555245,
    "nivel_riesgo": "medio",
    "contexto": "Información preliminar de riesgo",
    "estructuras_zona": "Sin datos",
    "novedades": "Novedades no especificadas"
  },
  {
    "departamento": "ANTIOQUIA",
    "municipio": "Belmira",
    "lat": 6.606319,
    "lng": -75.667779,
    "nivel_riesgo": "medio",
    "contexto": "Información preliminar de riesgo",
    "estructuras_zona": "Sin datos",
    "novedades": "Novedades no especificadas"
  },
  {
    "departamento": "ANTIOQUIA",
    "municipio": "Betania",
    "lat": 5.74615,
    "lng": -75.97679,
    "nivel_riesgo": "medio",
    "contexto": "Información preliminar de riesgo",
    "estructuras_zona": "Sin datos",
    "novedades": "Novedades no especificadas"
  },
  {
    "departamento": "ANTIOQUIA",
    "municipio": "Betulia",
    "lat": 6.115208,
    "lng": -75.984452,
    "nivel_riesgo": "medio",
    "contexto": "Información preliminar de riesgo",
    "estructuras_zona": "Sin datos",
    "novedades": "Novedades no especificadas"
  },
  {
    "departamento": "ANTIOQUIA",
    "municipio": "Briceño",
    "lat": 7.112803,
    "lng": -75.55036,
    "nivel_riesgo": "medio",
    "contexto": "Información preliminar de riesgo",
    "estructuras_zona": "Sin datos",
    "novedades": "Novedades no especificadas"
  },
  {
    "departamento": "ANTIOQUIA",
    "municipio": "Buriticá",
    "lat": 6.720759,
    "lng": -75.907,
    "nivel_riesgo": "medio",
    "contexto": "Información preliminar de riesgo",
    "estructuras_zona": "Sin datos",
    "novedades": "Novedades no especificadas"
  },
  {
    "departamento": "ANTIOQUIA",
    "municipio": "Cáceres",
    "lat": 7.578366,
    "lng": -75.35205,
    "nivel_riesgo": "medio",
    "contexto": "Información preliminar de riesgo",
    "estructuras_zona": "Sin datos",
    "novedades": "Novedades no especificadas"
  },
  {
    "departamento": "ANTIOQUIA",
    "municipio": "Caicedo",
    "lat": 6.405607,
    "lng": -75.98293,
    "nivel_riesgo": "medio",
    "contexto": "Información preliminar de riesgo",
    "estructuras_zona": "Sin datos",
    "novedades": "Novedades no especificadas"
  },
  {
    "departamento": "ANTIOQUIA",
    "municipio": "Caldas",
    "lat": 6.091077,
    "lng": -75.633673,
    "nivel_riesgo": "medio",
    "contexto": "Información preliminar de riesgo",
    "estructuras_zona": "Sin datos",
    "novedades": "Novedades no especificadas"
  },
  {
    "departamento": "ANTIOQUIA",
    "municipio": "Campamento",
    "lat": 6.979771,
    "lng": -75.298091,
    "nivel_riesgo": "medio",
    "contexto": "Información preliminar de riesgo",
    "estructuras_zona": "Sin datos",
    "novedades": "Novedades no especificadas"
  },
  {
    "departamento": "ANTIOQUIA",
    "municipio": "Cañasgordas",
    "lat": 6.753859,
    "lng": -76.028228,
    "nivel_riesgo": "medio",
    "contexto": "Información preliminar de riesgo",
    "estructuras_zona": "Sin datos",
    "novedades": "Novedades no especificadas"
  },
  {
    "departamento": "ANTIOQUIA",
    "municipio": "Caracolí",
    "lat": 6.409829,
    "lng": -74.757421,
    "nivel_riesgo": "medio",
    "contexto": "Información preliminar de riesgo",
    "estructuras_zona": "Sin datos",
    "novedades": "Novedades no especificadas"
  },
  {
    "departamento": "ANTIOQUIA",
    "municipio": "Caramanta",
    "lat": 5.54853,
    "lng": -75.643868,
    "nivel_riesgo": "medio",
    "contexto": "Información preliminar de riesgo",
    "estructuras_zona": "Sin datos",
    "novedades": "Novedades no especificadas"
  },
  {
    "departamento": "ANTIOQUIA",
    "municipio": "Carepa",
    "lat": 7.755148,
    "lng": -76.652652,
    "nivel_riesgo": "medio",
    "contexto": "Información preliminar de riesgo",
    "estructuras_zona": "Sin datos",
    "novedades": "Novedades no especificadas"
  },
  {
    "departamento": "ANTIOQUIA",
    "municipio": "Carolina",
    "lat": 6.725995,
    "lng": -75.283192,
    "nivel_riesgo": "medio",
    "contexto": "Información preliminar de riesgo",
    "estructuras_zona": "Sin datos",
    "novedades": "Novedades no especificadas"
  },
  {
    "departamento": "ANTIOQUIA",
    "municipio": "Caucasia",
    "lat": 7.977278,
    "lng": -75.197996,
    "nivel_riesgo": "medio",
    "contexto": "Información preliminar de riesgo",
    "estructuras_zona": "Sin datos",
    "novedades": "Novedades no especificadas"
  },
  {
    "departamento": "ANTIOQUIA",
    "municipio": "Chigorodó",
    "lat": 7.666147,
    "lng": -76.681531,
    "nivel_riesgo": "medio",
    "contexto": "Información preliminar de riesgo",
    "estructuras_zona": "Sin datos",
    "novedades": "Novedades no especificadas"
  },
  {
    "departamento": "ANTIOQUIA",
    "municipio": "Cisneros",
    "lat": 6.537829,
    "lng": -75.087047,
    "nivel_riesgo": "medio",
    "contexto": "Información preliminar de riesgo",
    "estructuras_zona": "Sin datos",
    "novedades": "Novedades no especificadas"
  },
  {
    "departamento": "ANTIOQUIA",
    "municipio": "Ciudad Bolívar",
    "lat": 5.850273,
    "lng": -76.021509,
    "nivel_riesgo": "medio",
    "contexto": "Información preliminar de riesgo",
    "estructuras_zona": "Sin datos",
    "novedades": "Novedades no especificadas"
  },
  {
    "departamento": "ANTIOQUIA",
    "municipio": "Cocorná",
    "lat": 6.058295,
    "lng": -75.185483,
    "nivel_riesgo": "medio",
    "contexto": "Información preliminar de riesgo",
    "estructuras_zona": "Sin datos",
    "novedades": "Novedades no especificadas"
  },
  {
    "departamento": "ANTIOQUIA",
    "municipio": "Concepción",
    "lat": 6.394348,
    "lng": -75.257587,
    "nivel_riesgo": "medio",
    "contexto": "Información preliminar de riesgo",
    "estructuras_zona": "Sin datos",
    "novedades": "Novedades no especificadas"
  },
  {
    "departamento": "ANTIOQUIA",
    "municipio": "Concordia",
    "lat": 6.045738,
    "lng": -75.908448,
    "nivel_riesgo": "medio",
    "contexto": "Información preliminar de riesgo",
    "estructuras_zona": "Sin datos",
    "novedades": "Novedades no especificadas"
  },
  {
    "departamento": "ANTIOQUIA",
    "municipio": "Copacabana",
    "lat": 6.348557,
    "lng": -75.509384,
    "nivel_riesgo": "medio",
    "contexto": "Información preliminar de riesgo",
    "estructuras_zona": "Sin datos",
    "novedades": "Novedades no especificadas"
  },
  {
    "departamento": "ANTIOQUIA",
    "municipio": "Dabeiba",
    "lat": 6.998112,
    "lng": -76.261614,
    "nivel_riesgo": "medio",
    "contexto": "Información preliminar de riesgo",
    "estructuras_zona": "Sin datos",
    "novedades": "Novedades no especificadas"
  },
  {
    "departamento": "ANTIOQUIA",
    "municipio": "Donmatías",
    "lat": 6.485603,
    "lng": -75.39263,
    "nivel_riesgo": "medio",
    "contexto": "Información preliminar de riesgo",
    "estructuras_zona": "Sin datos",
    "novedades": "Novedades no especificadas"
  },
  {
    "departamento": "ANTIOQUIA",
    "municipio": "Ebéjico",
    "lat": 6.325615,
    "lng": -75.766413,
    "nivel_riesgo": "medio",
    "contexto": "Información preliminar de riesgo",
    "estructuras_zona": "Sin datos",
    "novedades": "Novedades no especificadas"
  },
  {
    "departamento": "ANTIOQUIA",
    "municipio": "El Bagre",
    "lat": 7.5975,
    "lng": -74.799097,
    "nivel_riesgo": "medio",
    "contexto": "Información preliminar de riesgo",
    "estructuras_zona": "Sin datos",
    "novedades": "Novedades no especificadas"
  },
  {
    "departamento": "ANTIOQUIA",
    "municipio": "El Carmen De Viboral",
    "lat": 6.082885,
    "lng": -75.333901,
    "nivel_riesgo": "medio",
    "contexto": "Información preliminar de riesgo",
    "estructuras_zona": "Sin datos",
    "novedades": "Novedades no especificadas"
  },
  {
    "departamento": "ANTIOQUIA",
    "municipio": "El Santuario",
    "lat": 6.136871,
    "lng": -75.265465,
    "nivel_riesgo": "medio",
    "contexto": "Información preliminar de riesgo",
    "estructuras_zona": "Sin datos",
    "novedades": "Novedades no especificadas"
  },
  {
    "departamento": "ANTIOQUIA",
    "municipio": "Entrerríos",
    "lat": 6.566273,
    "lng": -75.517685,
    "nivel_riesgo": "medio",
    "contexto": "Información preliminar de riesgo",
    "estructuras_zona": "Sin datos",
    "novedades": "Novedades no especificadas"
  },
  {
    "departamento": "ANTIOQUIA",
    "municipio": "Envigado",
    "lat": 6.166695,
    "lng": -75.582192,
    "nivel_riesgo": "medio",
    "contexto": "Información preliminar de riesgo",
    "estructuras_zona": "Sin datos",
    "novedades": "Novedades no especificadas"
  },
  {
    "departamento": "ANTIOQUIA",
    "municipio": "Fredonia",
    "lat": 5.928039,
    "lng": -75.675072,
    "nivel_riesgo": "medio",
    "contexto": "Información preliminar de riesgo",
    "estructuras_zona": "Sin datos",
    "novedades": "Novedades no especificadas"
  },
  {
    "departamento": "ANTIOQUIA",
    "municipio": "Frontino",
    "lat": 6.776066,
    "lng": -76.130765,
    "nivel_riesgo": "medio",
    "contexto": "Información preliminar de riesgo",
    "estructuras_zona": "Sin datos",
    "novedades": "Novedades no especificadas"
  },
  {
    "departamento": "ANTIOQUIA",
    "municipio": "Giraldo",
    "lat": 6.680808,
    "lng": -75.952158,
    "nivel_riesgo": "medio",
    "contexto": "Información preliminar de riesgo",
    "estructuras_zona": "Sin datos",
    "novedades": "Novedades no especificadas"
  },
  {
    "departamento": "ANTIOQUIA",
    "municipio": "Girardota",
    "lat": 6.379472,
    "lng": -75.444238,
    "nivel_riesgo": "medio",
    "contexto": "Información preliminar de riesgo",
    "estructuras_zona": "Sin datos",
    "novedades": "Novedades no especificadas"
  },
  {
    "departamento": "ANTIOQUIA",
    "municipio": "Gómez Plata",
    "lat": 6.683269,
    "lng": -75.220018,
    "nivel_riesgo": "medio",
    "contexto": "Información preliminar de riesgo",
    "estructuras_zona": "Sin datos",
    "novedades": "Novedades no especificadas"
  },
  {
    "departamento": "ANTIOQUIA",
    "municipio": "Granada",
    "lat": 6.142892,
    "lng": -75.184446,
    "nivel_riesgo": "medio",
    "contexto": "Información preliminar de riesgo",
    "estructuras_zona": "Sin datos",
    "novedades": "Novedades no especificadas"
  },
  {
    "departamento": "ANTIOQUIA",
    "municipio": "Guadalupe",
    "lat": 6.815069,
    "lng": -75.239862,
    "nivel_riesgo": "medio",
    "contexto": "Información preliminar de riesgo",
    "estructuras_zona": "Sin datos",
    "novedades": "Novedades no especificadas"
  },
  {
    "departamento": "ANTIOQUIA",
    "municipio": "Guarne",
    "lat": 6.27787,
    "lng": -75.441612,
    "nivel_riesgo": "medio",
    "contexto": "Información preliminar de riesgo",
    "estructuras_zona": "Sin datos",
    "novedades": "Novedades no especificadas"
  },
  {
    "departamento": "ANTIOQUIA",
    "municipio": "Guatapé",
    "lat": 6.232461,
    "lng": -75.160041,
    "nivel_riesgo": "medio",
    "contexto": "Información preliminar de riesgo",
    "estructuras_zona": "Sin datos",
    "novedades": "Novedades no especificadas"
  },
  {
    "departamento": "ANTIOQUIA",
    "municipio": "Heliconia",
    "lat": 6.206757,
    "lng": -75.734322,
    "nivel_riesgo": "medio",
    "contexto": "Información preliminar de riesgo",
    "estructuras_zona": "Sin datos",
    "novedades": "Novedades no especificadas"
  },
  {
    "departamento": "ANTIOQUIA",
    "municipio": "Hispania",
    "lat": 5.799461,
    "lng": -75.906587,
    "nivel_riesgo": "medio",
    "contexto": "Información preliminar de riesgo",
    "estructuras_zona": "Sin datos",
    "novedades": "Novedades no especificadas"
  },
  {
    "departamento": "ANTIOQUIA",
    "municipio": "Itagüí",
    "lat": 6.175079,
    "lng": -75.612056,
    "nivel_riesgo": "medio",
    "contexto": "Información preliminar de riesgo",
    "estructuras_zona": "Sin datos",
    "novedades": "Novedades no especificadas"
  },
  {
    "departamento": "ANTIOQUIA",
    "municipio": "Ituango",
    "lat": 7.171629,
    "lng": -75.764673,
    "nivel_riesgo": "medio",
    "contexto": "Información preliminar de riesgo",
    "estructuras_zona": "Sin datos",
    "novedades": "Novedades no especificadas"
  },
  {
    "departamento": "ANTIOQUIA",
    "municipio": "Jardín",
    "lat": 5.597542,
    "lng": -75.818982,
    "nivel_riesgo": "medio",
    "contexto": "Información preliminar de riesgo",
    "estructuras_zona": "Sin datos",
    "novedades": "Novedades no especificadas"
  },
  {
    "departamento": "ANTIOQUIA",
    "municipio": "Jericó",
    "lat": 5.789748,
    "lng": -75.785499,
    "nivel_riesgo": "medio",
    "contexto": "Información preliminar de riesgo",
    "estructuras_zona": "Sin datos",
    "novedades": "Novedades no especificadas"
  },
  {
    "departamento": "ANTIOQUIA",
    "municipio": "La Ceja",
    "lat": 6.028062,
    "lng": -75.429433,
    "nivel_riesgo": "medio",
    "contexto": "Información preliminar de riesgo",
    "estructuras_zona": "Sin datos",
    "novedades": "Novedades no especificadas"
  },
  {
    "departamento": "ANTIOQUIA",
    "municipio": "La Estrella",
    "lat": 6.145238,
    "lng": -75.637708,
    "nivel_riesgo": "medio",
    "contexto": "Información preliminar de riesgo",
    "estructuras_zona": "Sin datos",
    "novedades": "Novedades no especificadas"
  },
  {
    "departamento": "ANTIOQUIA",
    "municipio": "La Pintada",
    "lat": 5.743808,
    "lng": -75.60781,
    "nivel_riesgo": "medio",
    "contexto": "Información preliminar de riesgo",
    "estructuras_zona": "Sin datos",
    "novedades": "Novedades no especificadas"
  },
  {
    "departamento": "ANTIOQUIA",
    "municipio": "La Unión",
    "lat": 5.973845,
    "lng": -75.360874,
    "nivel_riesgo": "medio",
    "contexto": "Información preliminar de riesgo",
    "estructuras_zona": "Sin datos",
    "novedades": "Novedades no especificadas"
  },
  {
    "departamento": "ANTIOQUIA",
    "municipio": "Liborina",
    "lat": 6.677316,
    "lng": -75.812838,
    "nivel_riesgo": "medio",
    "contexto": "Información preliminar de riesgo",
    "estructuras_zona": "Sin datos",
    "novedades": "Novedades no especificadas"
  },
  {
    "departamento": "ANTIOQUIA",
    "municipio": "Maceo",
    "lat": 6.552116,
    "lng": -74.78716,
    "nivel_riesgo": "medio",
    "contexto": "Información preliminar de riesgo",
    "estructuras_zona": "Sin datos",
    "novedades": "Novedades no especificadas"
  },
  {
    "departamento": "ANTIOQUIA",
    "municipio": "Marinilla",
    "lat": 6.173995,
    "lng": -75.339345,
    "nivel_riesgo": "medio",
    "contexto": "Información preliminar de riesgo",
    "estructuras_zona": "Sin datos",
    "novedades": "Novedades no especificadas"
  },
  {
    "departamento": "ANTIOQUIA",
    "municipio": "Medellín",
    "lat": 6.246631,
    "lng": -75.581775,
    "nivel_riesgo": "medio",
    "contexto": "Información preliminar de riesgo",
    "estructuras_zona": "Sin datos",
    "novedades": "Novedades no especificadas"
  },
  {
    "departamento": "ANTIOQUIA",
    "municipio": "Montebello",
    "lat": 5.946313,
    "lng": -75.523455,
    "nivel_riesgo": "medio",
    "contexto": "Información preliminar de riesgo",
    "estructuras_zona": "Sin datos",
    "novedades": "Novedades no especificadas"
  },
  {
    "departamento": "ANTIOQUIA",
    "municipio": "Murindó",
    "lat": 6.97771,
    "lng": -76.817485,
    "nivel_riesgo": "medio",
    "contexto": "Información preliminar de riesgo",
    "estructuras_zona": "Sin datos",
    "novedades": "Novedades no especificadas"
  },
  {
    "departamento": "ANTIOQUIA",
    "municipio": "Mutatá",
    "lat": 7.242875,
    "lng": -76.435875,
    "nivel_riesgo": "medio",
    "contexto": "Información preliminar de riesgo",
    "estructuras_zona": "Sin datos",
    "novedades": "Novedades no especificadas"
  },
  {
    "departamento": "ANTIOQUIA",
    "municipio": "Nariño",
    "lat": 5.610777,
    "lng": -75.176262,
    "nivel_riesgo": "medio",
    "contexto": "Información preliminar de riesgo",
    "estructuras_zona": "Sin datos",
    "novedades": "Novedades no especificadas"
  },
  {
    "departamento": "ANTIOQUIA",
    "municipio": "Nechí",
    "lat": 8.094129,
    "lng": -74.77647,
    "nivel_riesgo": "medio",
    "contexto": "Información preliminar de riesgo",
    "estructuras_zona": "Sin datos",
    "novedades": "Novedades no especificadas"
  },
  {
    "departamento": "ANTIOQUIA",
    "municipio": "Necoclí",
    "lat": 8.434526,
    "lng": -76.787271,
    "nivel_riesgo": "medio",
    "contexto": "Información preliminar de riesgo",
    "estructuras_zona": "Sin datos",
    "novedades": "Novedades no especificadas"
  },
  {
    "departamento": "ANTIOQUIA",
    "municipio": "Olaya",
    "lat": 6.626492,
    "lng": -75.811773,
    "nivel_riesgo": "medio",
    "contexto": "Información preliminar de riesgo",
    "estructuras_zona": "Sin datos",
    "novedades": "Novedades no especificadas"
  },
  {
    "departamento": "ANTIOQUIA",
    "municipio": "Peñol",
    "lat": 6.219349,
    "lng": -75.242693,
    "nivel_riesgo": "medio",
    "contexto": "Información preliminar de riesgo",
    "estructuras_zona": "Sin datos",
    "novedades": "Novedades no especificadas"
  },
  {
    "departamento": "ANTIOQUIA",
    "municipio": "Peque",
    "lat": 7.021029,
    "lng": -75.910357,
    "nivel_riesgo": "medio",
    "contexto": "Información preliminar de riesgo",
    "estructuras_zona": "Sin datos",
    "novedades": "Novedades no especificadas"
  },
  {
    "departamento": "ANTIOQUIA",
    "municipio": "Pueblorrico",
    "lat": 5.79158,
    "lng": -75.839903,
    "nivel_riesgo": "medio",
    "contexto": "Información preliminar de riesgo",
    "estructuras_zona": "Sin datos",
    "novedades": "Novedades no especificadas"
  },
  {
    "departamento": "ANTIOQUIA",
    "municipio": "Puerto Berrío",
    "lat": 6.487028,
    "lng": -74.410016,
    "nivel_riesgo": "medio",
    "contexto": "Información preliminar de riesgo",
    "estructuras_zona": "Sin datos",
    "novedades": "Novedades no especificadas"
  },
  {
    "departamento": "ANTIOQUIA",
    "municipio": "Puerto Nare",
    "lat": 6.186025,
    "lng": -74.583012,
    "nivel_riesgo": "medio",
    "contexto": "Información preliminar de riesgo",
    "estructuras_zona": "Sin datos",
    "novedades": "Novedades no especificadas"
  },
  {
    "departamento": "ANTIOQUIA",
    "municipio": "Puerto Triunfo",
    "lat": 5.871318,
    "lng": -74.64119,
    "nivel_riesgo": "medio",
    "contexto": "Información preliminar de riesgo",
    "estructuras_zona": "Sin datos",
    "novedades": "Novedades no especificadas"
  },
  {
    "departamento": "ANTIOQUIA",
    "municipio": "Remedios",
    "lat": 7.029424,
    "lng": -74.698135,
    "nivel_riesgo": "medio",
    "contexto": "Información preliminar de riesgo",
    "estructuras_zona": "Sin datos",
    "novedades": "Novedades no especificadas"
  },
  {
    "departamento": "ANTIOQUIA",
    "municipio": "Retiro",
    "lat": 6.062454,
    "lng": -75.501301,
    "nivel_riesgo": "medio",
    "contexto": "Información preliminar de riesgo",
    "estructuras_zona": "Sin datos",
    "novedades": "Novedades no especificadas"
  },
  {
    "departamento": "ANTIOQUIA",
    "municipio": "Rionegro",
    "lat": 6.147148,
    "lng": -75.377316,
    "nivel_riesgo": "medio",
    "contexto": "Información preliminar de riesgo",
    "estructuras_zona": "Sin datos",
    "novedades": "Novedades no especificadas"
  },
  {
    "departamento": "ANTIOQUIA",
    "municipio": "Sabanalarga",
    "lat": 6.850028,
    "lng": -75.816645,
    "nivel_riesgo": "medio",
    "contexto": "Información preliminar de riesgo",
    "estructuras_zona": "Sin datos",
    "novedades": "Novedades no especificadas"
  },
  {
    "departamento": "ANTIOQUIA",
    "municipio": "Sabaneta",
    "lat": 6.149903,
    "lng": -75.615479,
    "nivel_riesgo": "medio",
    "contexto": "Información preliminar de riesgo",
    "estructuras_zona": "Sin datos",
    "novedades": "Novedades no especificadas"
  },
  {
    "departamento": "ANTIOQUIA",
    "municipio": "Salgar",
    "lat": 5.964198,
    "lng": -75.976807,
    "nivel_riesgo": "medio",
    "contexto": "Información preliminar de riesgo",
    "estructuras_zona": "Sin datos",
    "novedades": "Novedades no especificadas"
  },
  {
    "departamento": "ANTIOQUIA",
    "municipio": "San Andrés De Cuerquía",
    "lat": 6.916676,
    "lng": -75.674564,
    "nivel_riesgo": "medio",
    "contexto": "Información preliminar de riesgo",
    "estructuras_zona": "Sin datos",
    "novedades": "Novedades no especificadas"
  },
  {
    "departamento": "ANTIOQUIA",
    "municipio": "San Carlos",
    "lat": 6.187746,
    "lng": -74.988097,
    "nivel_riesgo": "medio",
    "contexto": "Información preliminar de riesgo",
    "estructuras_zona": "Sin datos",
    "novedades": "Novedades no especificadas"
  },
  {
    "departamento": "ANTIOQUIA",
    "municipio": "San Francisco",
    "lat": 5.963476,
    "lng": -75.101562,
    "nivel_riesgo": "medio",
    "contexto": "Información preliminar de riesgo",
    "estructuras_zona": "Sin datos",
    "novedades": "Novedades no especificadas"
  },
  {
    "departamento": "ANTIOQUIA",
    "municipio": "San Jerónimo",
    "lat": 6.44809,
    "lng": -75.726975,
    "nivel_riesgo": "medio",
    "contexto": "Información preliminar de riesgo",
    "estructuras_zona": "Sin datos",
    "novedades": "Novedades no especificadas"
  },
  {
    "departamento": "ANTIOQUIA",
    "municipio": "San José De La Montaña",
    "lat": 6.85009,
    "lng": -75.683352,
    "nivel_riesgo": "medio",
    "contexto": "Información preliminar de riesgo",
    "estructuras_zona": "Sin datos",
    "novedades": "Novedades no especificadas"
  },
  {
    "departamento": "ANTIOQUIA",
    "municipio": "San Juan De Urabá",
    "lat": 8.758964,
    "lng": -76.52857,
    "nivel_riesgo": "medio",
    "contexto": "Información preliminar de riesgo",
    "estructuras_zona": "Sin datos",
    "novedades": "Novedades no especificadas"
  },
  {
    "departamento": "ANTIOQUIA",
    "municipio": "San Luis",
    "lat": 6.043017,
    "lng": -74.993619,
    "nivel_riesgo": "medio",
    "contexto": "Información preliminar de riesgo",
    "estructuras_zona": "Sin datos",
    "novedades": "Novedades no especificadas"
  },
  {
    "departamento": "ANTIOQUIA",
    "municipio": "San Pedro De Los Milagros",
    "lat": 6.46012,
    "lng": -75.556743,
    "nivel_riesgo": "medio",
    "contexto": "Información preliminar de riesgo",
    "estructuras_zona": "Sin datos",
    "novedades": "Novedades no especificadas"
  },
  {
    "departamento": "ANTIOQUIA",
    "municipio": "San Pedro De Urabá",
    "lat": 8.276884,
    "lng": -76.380567,
    "nivel_riesgo": "medio",
    "contexto": "Información preliminar de riesgo",
    "estructuras_zona": "Sin datos",
    "novedades": "Novedades no especificadas"
  },
  {
    "departamento": "ANTIOQUIA",
    "municipio": "San Rafael",
    "lat": 6.293759,
    "lng": -75.02849,
    "nivel_riesgo": "medio",
    "contexto": "Información preliminar de riesgo",
    "estructuras_zona": "Sin datos",
    "novedades": "Novedades no especificadas"
  },
  {
    "departamento": "ANTIOQUIA",
    "municipio": "San Roque",
    "lat": 6.485939,
    "lng": -75.019109,
    "nivel_riesgo": "medio",
    "contexto": "Información preliminar de riesgo",
    "estructuras_zona": "Sin datos",
    "novedades": "Novedades no especificadas"
  },
  {
    "departamento": "ANTIOQUIA",
    "municipio": "San Vicente Ferrer",
    "lat": 6.282164,
    "lng": -75.332616,
    "nivel_riesgo": "medio",
    "contexto": "Información preliminar de riesgo",
    "estructuras_zona": "Sin datos",
    "novedades": "Novedades no especificadas"
  },
  {
    "departamento": "ANTIOQUIA",
    "municipio": "Santa Bárbara",
    "lat": 5.875527,
    "lng": -75.567351,
    "nivel_riesgo": "medio",
    "contexto": "Información preliminar de riesgo",
    "estructuras_zona": "Sin datos",
    "novedades": "Novedades no especificadas"
  },
  {
    "departamento": "ANTIOQUIA",
    "municipio": "Santa Fé De Antioquia",
    "lat": 6.556484,
    "lng": -75.826648,
    "nivel_riesgo": "medio",
    "contexto": "Información preliminar de riesgo",
    "estructuras_zona": "Sin datos",
    "novedades": "Novedades no especificadas"
  },
  {
    "departamento": "ANTIOQUIA",
    "municipio": "Santa Rosa De Osos",
    "lat": 6.643366,
    "lng": -75.460723,
    "nivel_riesgo": "medio",
    "contexto": "Información preliminar de riesgo",
    "estructuras_zona": "Sin datos",
    "novedades": "Novedades no especificadas"
  },
  {
    "departamento": "ANTIOQUIA",
    "municipio": "Santo Domingo",
    "lat": 6.473032,
    "lng": -75.164903,
    "nivel_riesgo": "medio",
    "contexto": "Información preliminar de riesgo",
    "estructuras_zona": "Sin datos",
    "novedades": "Novedades no especificadas"
  },
  {
    "departamento": "ANTIOQUIA",
    "municipio": "Segovia",
    "lat": 7.079648,
    "lng": -74.701596,
    "nivel_riesgo": "medio",
    "contexto": "Información preliminar de riesgo",
    "estructuras_zona": "Sin datos",
    "novedades": "Novedades no especificadas"
  },
  {
    "departamento": "ANTIOQUIA",
    "municipio": "Sonsón",
    "lat": 5.714851,
    "lng": -75.309596,
    "nivel_riesgo": "medio",
    "contexto": "Información preliminar de riesgo",
    "estructuras_zona": "Sin datos",
    "novedades": "Novedades no especificadas"
  },
  {
    "departamento": "ANTIOQUIA",
    "municipio": "Sopetrán",
    "lat": 6.500745,
    "lng": -75.747378,
    "nivel_riesgo": "medio",
    "contexto": "Información preliminar de riesgo",
    "estructuras_zona": "Sin datos",
    "novedades": "Novedades no especificadas"
  },
  {
    "departamento": "ANTIOQUIA",
    "municipio": "Támesis",
    "lat": 5.664645,
    "lng": -75.714429,
    "nivel_riesgo": "medio",
    "contexto": "Información preliminar de riesgo",
    "estructuras_zona": "Sin datos",
    "novedades": "Novedades no especificadas"
  },
  {
    "departamento": "ANTIOQUIA",
    "municipio": "Tarazá",
    "lat": 7.580127,
    "lng": -75.401407,
    "nivel_riesgo": "medio",
    "contexto": "Información preliminar de riesgo",
    "estructuras_zona": "Sin datos",
    "novedades": "Novedades no especificadas"
  },
  {
    "departamento": "ANTIOQUIA",
    "municipio": "Tarso",
    "lat": 5.864542,
    "lng": -75.822956,
    "nivel_riesgo": "medio",
    "contexto": "Información preliminar de riesgo",
    "estructuras_zona": "Sin datos",
    "novedades": "Novedades no especificadas"
  },
  {
    "departamento": "ANTIOQUIA",
    "municipio": "Titiribí",
    "lat": 6.062391,
    "lng": -75.791887,
    "nivel_riesgo": "medio",
    "contexto": "Información preliminar de riesgo",
    "estructuras_zona": "Sin datos",
    "novedades": "Novedades no especificadas"
  },
  {
    "departamento": "ANTIOQUIA",
    "municipio": "Toledo",
    "lat": 7.010328,
    "lng": -75.692281,
    "nivel_riesgo": "medio",
    "contexto": "Información preliminar de riesgo",
    "estructuras_zona": "Sin datos",
    "novedades": "Novedades no especificadas"
  },
  {
    "departamento": "ANTIOQUIA",
    "municipio": "Turbo",
    "lat": 8.089929,
    "lng": -76.728858,
    "nivel_riesgo": "medio",
    "contexto": "Información preliminar de riesgo",
    "estructuras_zona": "Sin datos",
    "novedades": "Novedades no especificadas"
  },
  {
    "departamento": "ANTIOQUIA",
    "municipio": "Uramita",
    "lat": 6.898393,
    "lng": -76.173284,
    "nivel_riesgo": "medio",
    "contexto": "Información preliminar de riesgo",
    "estructuras_zona": "Sin datos",
    "novedades": "Novedades no especificadas"
  },
  {
    "departamento": "ANTIOQUIA",
    "municipio": "Urrao",
    "lat": 6.317343,
    "lng": -76.133951,
    "nivel_riesgo": "medio",
    "contexto": "Información preliminar de riesgo",
    "estructuras_zona": "Sin datos",
    "novedades": "Novedades no especificadas"
  },
  {
    "departamento": "ANTIOQUIA",
    "municipio": "Valdivia",
    "lat": 7.1652,
    "lng": -75.439274,
    "nivel_riesgo": "medio",
    "contexto": "Información preliminar de riesgo",
    "estructuras_zona": "Sin datos",
    "novedades": "Novedades no especificadas"
  },
  {
    "departamento": "ANTIOQUIA",
    "municipio": "Valparaíso",
    "lat": 5.614555,
    "lng": -75.624452,
    "nivel_riesgo": "medio",
    "contexto": "Información preliminar de riesgo",
    "estructuras_zona": "Sin datos",
    "novedades": "Novedades no especificadas"
  },
  {
    "departamento": "ANTIOQUIA",
    "municipio": "Vegachí",
    "lat": 6.773525,
    "lng": -74.798714,
    "nivel_riesgo": "medio",
    "contexto": "Información preliminar de riesgo",
    "estructuras_zona": "Sin datos",
    "novedades": "Novedades no especificadas"
  },
  {
    "departamento": "ANTIOQUIA",
    "municipio": "Venecia",
    "lat": 5.964693,
    "lng": -75.735544,
    "nivel_riesgo": "medio",
    "contexto": "Información preliminar de riesgo",
    "estructuras_zona": "Sin datos",
    "novedades": "Novedades no especificadas"
  },
  {
    "departamento": "ANTIOQUIA",
    "municipio": "Vigía Del Fuerte",
    "lat": 6.588164,
    "lng": -76.896004,
    "nivel_riesgo": "medio",
    "contexto": "Información preliminar de riesgo",
    "estructuras_zona": "Sin datos",
    "novedades": "Novedades no especificadas"
  },
  {
    "departamento": "ANTIOQUIA",
    "municipio": "Yalí",
    "lat": 6.676554,
    "lng": -74.840059,
    "nivel_riesgo": "medio",
    "contexto": "Información preliminar de riesgo",
    "estructuras_zona": "Sin datos",
    "novedades": "Novedades no especificadas"
  },
  {
    "departamento": "ANTIOQUIA",
    "municipio": "Yarumal",
    "lat": 6.963832,
    "lng": -75.418828,
    "nivel_riesgo": "medio",
    "contexto": "Información preliminar de riesgo",
    "estructuras_zona": "Sin datos",
    "novedades": "Novedades no especificadas"
  },
  {
    "departamento": "ANTIOQUIA",
    "municipio": "Yolombó",
    "lat": 6.594511,
    "lng": -75.013385,
    "nivel_riesgo": "medio",
    "contexto": "Información preliminar de riesgo",
    "estructuras_zona": "Sin datos",
    "novedades": "Novedades no especificadas"
  },
  {
    "departamento": "ANTIOQUIA",
    "municipio": "Yondó",
    "lat": 7.00396,
    "lng": -73.912445,
    "nivel_riesgo": "medio",
    "contexto": "Información preliminar de riesgo",
    "estructuras_zona": "Sin datos",
    "novedades": "Novedades no especificadas"
  },
  {
    "departamento": "ANTIOQUIA",
    "municipio": "Zaragoza",
    "lat": 7.488583,
    "lng": -74.867075,
    "nivel_riesgo": "medio",
    "contexto": "Información preliminar de riesgo",
    "estructuras_zona": "Sin datos",
    "novedades": "Novedades no especificadas"
  },
  {
    "departamento": "CAUCA",
    "municipio": "ARGELIA",
    "lat": 2.25583,
    "lng": -77.2492,
    "nivel_riesgo": "alto",
    "contexto": "Conflictos por rutas de narcotráfico",
    "estructuras_zona": "GAOR estructura 6",
    "novedades": "Presencia de grupos armados organizados"
  },
  {
    "departamento": "CAUCA",
    "municipio": "BALBOA",
    "lat": 2.05056,
    "lng": -77.2164,
    "nivel_riesgo": "medio",
    "contexto": "Zona de paso esporádico de grupos armados",
    "estructuras_zona": "Presencia policial",
    "novedades": "Situación estable"
  },
  {
    "departamento": "CAUCA",
    "municipio": "BOLIVAR",
    "lat": 1.833888,
    "lng": -76.961888,
    "nivel_riesgo": "medio",
    "contexto": "Conflictos comunitarios no armados",
    "estructuras_zona": "Autoridades municipales",
    "novedades": "Protestas menores en zona rural"
  },
  {
    "departamento": "CAUCA",
    "municipio": "BUENOS AIRES",
    "lat": 3.1195,
    "lng": -76.6817,
    "nivel_riesgo": "alto",
    "contexto": "Presencia de grupos armados ilegales",
    "estructuras_zona": "GAOR, Policía, FFMM",
    "novedades": "Combates recientes en veredas"
  },
  {
    "departamento": "CAUCA",
    "municipio": "CAJIBIO",
    "lat": 2.7358,
    "lng": -76.5699,
    "nivel_riesgo": "bajo",
    "contexto": "Zona sin presencia reportada de GAO",
    "estructuras_zona": "Estación de policía",
    "novedades": "Sin novedades relevantes"
  },
  {
    "departamento": "CAUCA",
    "municipio": "CALDONO",
    "lat": 2.7875,
    "lng": -76.4119,
    "nivel_riesgo": "alto",
    "contexto": "Disputa entre estructuras armadas",
    "estructuras_zona": "GAOR estructura 6, comunidades indígenas",
    "novedades": "Desplazamientos forzados recientes"
  },
  {
    "departamento": "CAUCA",
    "municipio": "CALOTO",
    "lat": 3.0343,
    "lng": -76.4043,
    "nivel_riesgo": "alto",
    "contexto": "Zona de control armado",
    "estructuras_zona": "GAO-r estructura 6",
    "novedades": "Enfrentamientos y ataques a la fuerza pública"
  },
  {
    "departamento": "CAUCA",
    "municipio": "CORINTO",
    "lat": 3.1748,
    "lng": -76.2615,
    "nivel_riesgo": "alto",
    "contexto": "Disputas territoriales entre GAO",
    "estructuras_zona": "GAO-r, Policía, Ejército",
    "novedades": "Atentado con explosivos en zona urbana"
  },
  {
    "departamento": "CAUCA",
    "municipio": "EL TAMBO",
    "lat": 2.441,
    "lng": -77.0163,
    "nivel_riesgo": "medio",
    "contexto": "Presión a comerciantes rurales",
    "estructuras_zona": "GAOR estructura 30",
    "novedades": "Incremento de extorsiones en veredas"
  },
  {
    "departamento": "CAUCA",
    "municipio": "FLORENCIA",
    "lat": 1.6922,
    "lng": -77.0746,
    "nivel_riesgo": "bajo",
    "contexto": "Presencia institucional activa",
    "estructuras_zona": "Estación de Policía",
    "novedades": "Sin novedades reportadas"
  },
  {
    "departamento": "CAUCA",
    "municipio": "GUAPI",
    "lat": 2.5712,
    "lng": -77.9065,
    "nivel_riesgo": "medio",
    "contexto": "Zona costera con baja presencia institucional",
    "estructuras_zona": "GAO-r, fuerza pública naval",
    "novedades": "Restricción de movilidad fluvial por GAO"
  },
  {
    "departamento": "CAUCA",
    "municipio": "INZA",
    "lat": 2.5554,
    "lng": -76.0713,
    "nivel_riesgo": "medio",
    "contexto": "Región montañosa con difícil acceso",
    "estructuras_zona": "GAO-r esporádico",
    "novedades": "Campesinos denuncian presión por parte de grupos"
  },
  {
    "departamento": "CAUCA",
    "municipio": "JAMBALO",
    "lat": 2.7875,
    "lng": -76.328,
    "nivel_riesgo": "alto",
    "contexto": "Zona indígena en disputa territorial",
    "estructuras_zona": "GAO-r, Guardia Indígena",
    "novedades": "Conflictos entre comunidad y estructuras armadas"
  },
  {
    "departamento": "CAUCA",
    "municipio": "LA SIERRA",
    "lat": 2.1756,
    "lng": -76.7229,
    "nivel_riesgo": "bajo",
    "contexto": "Poca o nula presencia de grupos ilegales",
    "estructuras_zona": "Autoridades locales",
    "novedades": "Tranquilidad en cabecera municipal"
  },
  {
    "departamento": "CAUCA",
    "municipio": "LA VEGA",
    "lat": 2.1833,
    "lng": -76.776,
    "nivel_riesgo": "bajo",
    "contexto": "Zona de producción agrícola",
    "estructuras_zona": "Estación de Policía",
    "novedades": "Sin alertas recientes"
  },
  {
    "departamento": "CAUCA",
    "municipio": "LOPEZ DE MICAY",
    "lat": 2.7442,
    "lng": -77.6385,
    "nivel_riesgo": "alto",
    "contexto": "Difícil acceso por vía terrestre",
    "estructuras_zona": "GAO-r, estructura 30",
    "novedades": "Control social por GAO"
  },
  {
    "departamento": "CAUCA",
    "municipio": "MERCADERES",
    "lat": 1.7979,
    "lng": -77.1693,
    "nivel_riesgo": "medio",
    "contexto": "Presión armada en zonas rurales",
    "estructuras_zona": "GAO-r",
    "novedades": "Amenazas a líderes comunales"
  },
  {
    "departamento": "CAUCA",
    "municipio": "MIRANDA",
    "lat": 3.243218,
    "lng": -76.225,
    "nivel_riesgo": "alto",
    "contexto": "Zona de enfrentamientos recientes entre disidencias y Ejército",
    "estructuras_zona": "Ejército, GAO-r",
    "novedades": "Parálisis parcial del transporte"
  },
  {
    "departamento": "CAUCA",
    "municipio": "MORALES",
    "lat": 2.7512,
    "lng": -76.6234,
    "nivel_riesgo": "medio",
    "contexto": "Disputa entre estructuras armadas",
    "estructuras_zona": "GAO-r, autoridades locales",
    "novedades": "Desplazamiento de comunidades rurales"
  },
  {
    "departamento": "CAUCA",
    "municipio": "PADILLA",
    "lat": 3.2183,
    "lng": -76.3123,
    "nivel_riesgo": "bajo",
    "contexto": "Zona con presencia policial estable",
    "estructuras_zona": "Policía Nacional",
    "novedades": "Sin incidentes registrados"
  },
  {
    "departamento": "CAUCA",
    "municipio": "PAEZ",
    "lat": 2.6497,
    "lng": -75.9812,
    "nivel_riesgo": "alto",
    "contexto": "Zona con fuerte presencia ancestral",
    "estructuras_zona": "Guardia Indígena, GAO-r",
    "novedades": "Presión armada sobre comunidades indígenas"
  },
  {
    "departamento": "CAUCA",
    "municipio": "PATIA",
    "lat": 2.0633,
    "lng": -77.0456,
    "nivel_riesgo": "alto",
    "contexto": "Alta vulnerabilidad institucional",
    "estructuras_zona": "GAOR estructura 6",
    "novedades": "Narcotráfico y corredores de movilidad"
  },
  {
    "departamento": "CAUCA",
    "municipio": "PIAMONTE",
    "lat": 1.1007,
    "lng": -76.3494,
    "nivel_riesgo": "medio",
    "contexto": "Área limítrofe con Putumayo",
    "estructuras_zona": "Presencia esporádica de GAO",
    "novedades": "Movimientos extraños en zonas selváticas"
  },
  {
    "departamento": "CAUCA",
    "municipio": "PIENDAMO",
    "lat": 2.7169,
    "lng": -76.5353,
    "nivel_riesgo": "bajo",
    "contexto": "Zona de paso entre Popayán y el norte",
    "estructuras_zona": "Policía, Ejército",
    "novedades": "Estabilidad institucional"
  },
  {
    "departamento": "CAUCA",
    "municipio": "POPAYAN",
    "lat": 2.459641,
    "lng": -76.599377,
    "nivel_riesgo": "alto",
    "contexto": "Zona de conflicto territorial con presencia de actores armados ilegales",
    "estructuras_zona": "Eln GAO-r",
    "novedades": "Presencia de GAO-r estructura 6"
  },
  {
    "departamento": "CAUCA",
    "municipio": "PUERTO TEJADA",
    "lat": 3.2356,
    "lng": -76.4191,
    "nivel_riesgo": "medio",
    "contexto": "Municipio estratégico por cercanía al Valle",
    "estructuras_zona": "GAO-r, Policía Nacional",
    "novedades": "Reclutamiento de jóvenes en zonas periféricas"
  },
  {
    "departamento": "CAUCA",
    "municipio": "ROSAS",
    "lat": 1.9611,
    "lng": -76.7439,
    "nivel_riesgo": "bajo",
    "contexto": "Zona afectada por derrumbes naturales más que conflicto",
    "estructuras_zona": "Autoridades municipales",
    "novedades": "Sin eventos recientes reportados"
  },
  {
    "departamento": "CAUCA",
    "municipio": "SAN SEBASTIAN",
    "lat": 2.0966,
    "lng": -76.7896,
    "nivel_riesgo": "medio",
    "contexto": "Riesgos por cercanía a zonas de influencia armada",
    "estructuras_zona": "Policía Nacional",
    "novedades": "Presión sobre líderes sociales"
  },
  {
    "departamento": "CAUCA",
    "municipio": "SANTA ROSA",
    "lat": 1.8535,
    "lng": -76.7752,
    "nivel_riesgo": "bajo",
    "contexto": "Municipio alejado del conflicto actual",
    "estructuras_zona": "Autoridades locales",
    "novedades": "Sin novedades recientes"
  },
  {
    "departamento": "CAUCA",
    "municipio": "SANTANDER DE QUILICHAO",
    "lat": 3.012876,
    "lng": -76.4845,
    "nivel_riesgo": "medio",
    "contexto": "Ruta estratégica en disputa por narcotráfico",
    "estructuras_zona": "GAO-r estructura 30",
    "novedades": "Bloqueos y presencia de disidencias"
  },
  {
    "departamento": "CAUCA",
    "municipio": "SILVIA",
    "lat": 2.6201,
    "lng": -76.3804,
    "nivel_riesgo": "medio",
    "contexto": "Zona de resguardos con tensiones sociales",
    "estructuras_zona": "Guardia Indígena, Policía",
    "novedades": "Movilizaciones indígenas"
  },
  {
    "departamento": "CAUCA",
    "municipio": "SOTARA",
    "lat": 2.3162,
    "lng": -76.6921,
    "nivel_riesgo": "bajo",
    "contexto": "Zona rural de bajo impacto",
    "estructuras_zona": "Presencia municipal",
    "novedades": "Sin registros de amenazas o presencia armada"
  },
  {
    "departamento": "CAUCA",
    "municipio": "SUAREZ",
    "lat": 2.9475,
    "lng": -76.7125,
    "nivel_riesgo": "alto",
    "contexto": "Foco de conflicto armado y social",
    "estructuras_zona": "GAO-r, Ejército",
    "novedades": "Enfrentamientos y presencia de minería ilegal"
  },
  {
    "departamento": "CAUCA",
    "municipio": "TIMBIO",
    "lat": 2.3362,
    "lng": -76.6812,
    "nivel_riesgo": "medio",
    "contexto": "Zona intermedia entre municipios de alto riesgo",
    "estructuras_zona": "Policía Nacional",
    "novedades": "Rumores de extorsiones rurales"
  },
  {
    "departamento": "CAUCA",
    "municipio": "TIMBIQUI",
    "lat": 2.76606,
    "lng": -77.654324,
    "nivel_riesgo": "medio",
    "contexto": "Zona costera con baja presencia institucional",
    "estructuras_zona": "Disidencias FARC, control social",
    "novedades": "Restricción de movilidad fluvial por presencia de grupos armados"
  },
  {
    "departamento": "CAUCA",
    "municipio": "TORIBIO",
    "lat": 2.9512,
    "lng": -76.2606,
    "nivel_riesgo": "alto",
    "contexto": "Conflicto con comunidades indígenas",
    "estructuras_zona": "Guardia Indígena, GAO-r",
    "novedades": "Histórica presencia de grupos ilegales"
  },
  {
    "departamento": "CAUCA",
    "municipio": "TOTORO",
    "lat": 2.5338,
    "lng": -76.4126,
    "nivel_riesgo": "bajo",
    "contexto": "Tranquilidad y baja presión armada",
    "estructuras_zona": "Autoridades locales",
    "novedades": "Sin eventos recientes"
  },
  {
    "departamento": "CAUCA",
    "municipio": "VILLA RICA",
    "lat": 3.1723,
    "lng": -76.4813,
    "nivel_riesgo": "medio",
    "contexto": "Zona industrial con riesgos colaterales",
    "estructuras_zona": "Policía, Ejército",
    "novedades": "Tensión por cercanía con Puerto Tejada"
  },
  {
    "departamento": "NARIÑO",
    "municipio": "Albán",
    "lat": 1.474978,
    "lng": -77.080712,
    "nivel_riesgo": "medio",
    "contexto": "Información preliminar de riesgo",
    "estructuras_zona": "Sin datos",
    "novedades": "Novedades no especificadas"
  },
  {
    "departamento": "NARIÑO",
    "municipio": "Aldana",
    "lat": 0.882381,
    "lng": -77.700564,
    "nivel_riesgo": "medio",
    "contexto": "Información preliminar de riesgo",
    "estructuras_zona": "Sin datos",
    "novedades": "Novedades no especificadas"
  },
  {
    "departamento": "NARIÑO",
    "municipio": "Ancuya",
    "lat": 1.263276,
    "lng": -77.514512,
    "nivel_riesgo": "medio",
    "contexto": "Información preliminar de riesgo",
    "estructuras_zona": "Sin datos",
    "novedades": "Novedades no especificadas"
  },
  {
    "departamento": "NARIÑO",
    "municipio": "Arboleda",
    "lat": 1.503418,
    "lng": -77.135467,
    "nivel_riesgo": "medio",
    "contexto": "Información preliminar de riesgo",
    "estructuras_zona": "Sin datos",
    "novedades": "Novedades no especificadas"
  },
  {
    "departamento": "NARIÑO",
    "municipio": "Barbacoas",
    "lat": 1.671733,
    "lng": -78.13765,
    "nivel_riesgo": "medio",
    "contexto": "Información preliminar de riesgo",
    "estructuras_zona": "Sin datos",
    "novedades": "Novedades no especificadas"
  },
  {
    "departamento": "NARIÑO",
    "municipio": "Belén",
    "lat": 1.595681,
    "lng": -77.015619,
    "nivel_riesgo": "medio",
    "contexto": "Información preliminar de riesgo",
    "estructuras_zona": "Sin datos",
    "novedades": "Novedades no especificadas"
  },
  {
    "departamento": "NARIÑO",
    "municipio": "Buesaco",
    "lat": 1.381453,
    "lng": -77.156463,
    "nivel_riesgo": "medio",
    "contexto": "Información preliminar de riesgo",
    "estructuras_zona": "Sin datos",
    "novedades": "Novedades no especificadas"
  },
  {
    "departamento": "NARIÑO",
    "municipio": "Chachagüí",
    "lat": 1.360545,
    "lng": -77.281869,
    "nivel_riesgo": "medio",
    "contexto": "Información preliminar de riesgo",
    "estructuras_zona": "Sin datos",
    "novedades": "Novedades no especificadas"
  },
  {
    "departamento": "NARIÑO",
    "municipio": "Colón",
    "lat": 1.643878,
    "lng": -77.019777,
    "nivel_riesgo": "medio",
    "contexto": "Información preliminar de riesgo",
    "estructuras_zona": "Sin datos",
    "novedades": "Novedades no especificadas"
  },
  {
    "departamento": "NARIÑO",
    "municipio": "Consacá",
    "lat": 1.207854,
    "lng": -77.466136,
    "nivel_riesgo": "medio",
    "contexto": "Información preliminar de riesgo",
    "estructuras_zona": "Sin datos",
    "novedades": "Novedades no especificadas"
  },
  {
    "departamento": "NARIÑO",
    "municipio": "Contadero",
    "lat": 0.910458,
    "lng": -77.549409,
    "nivel_riesgo": "medio",
    "contexto": "Información preliminar de riesgo",
    "estructuras_zona": "Sin datos",
    "novedades": "Novedades no especificadas"
  },
  {
    "departamento": "NARIÑO",
    "municipio": "Córdoba",
    "lat": 0.854564,
    "lng": -77.517897,
    "nivel_riesgo": "medio",
    "contexto": "Información preliminar de riesgo",
    "estructuras_zona": "Sin datos",
    "novedades": "Novedades no especificadas"
  },
  {
    "departamento": "NARIÑO",
    "municipio": "Cuaspud Carlosama",
    "lat": 0.862978,
    "lng": -77.728947,
    "nivel_riesgo": "medio",
    "contexto": "Información preliminar de riesgo",
    "estructuras_zona": "Sin datos",
    "novedades": "Novedades no especificadas"
  },
  {
    "departamento": "NARIÑO",
    "municipio": "Cumbal",
    "lat": 0.906367,
    "lng": -77.792505,
    "nivel_riesgo": "medio",
    "contexto": "Información preliminar de riesgo",
    "estructuras_zona": "Sin datos",
    "novedades": "Novedades no especificadas"
  },
  {
    "departamento": "NARIÑO",
    "municipio": "Cumbitara",
    "lat": 1.647163,
    "lng": -77.578616,
    "nivel_riesgo": "medio",
    "contexto": "Información preliminar de riesgo",
    "estructuras_zona": "Sin datos",
    "novedades": "Novedades no especificadas"
  },
  {
    "departamento": "NARIÑO",
    "municipio": "El Charco",
    "lat": 2.479688,
    "lng": -78.110217,
    "nivel_riesgo": "medio",
    "contexto": "Información preliminar de riesgo",
    "estructuras_zona": "Sin datos",
    "novedades": "Novedades no especificadas"
  },
  {
    "departamento": "NARIÑO",
    "municipio": "El Peñol",
    "lat": 1.453567,
    "lng": -77.438522,
    "nivel_riesgo": "medio",
    "contexto": "Información preliminar de riesgo",
    "estructuras_zona": "Sin datos",
    "novedades": "Novedades no especificadas"
  },
  {
    "departamento": "NARIÑO",
    "municipio": "El Rosario",
    "lat": 1.745309,
    "lng": -77.33417,
    "nivel_riesgo": "medio",
    "contexto": "Información preliminar de riesgo",
    "estructuras_zona": "Sin datos",
    "novedades": "Novedades no especificadas"
  },
  {
    "departamento": "NARIÑO",
    "municipio": "El Tablón De Gómez",
    "lat": 1.427277,
    "lng": -77.097101,
    "nivel_riesgo": "medio",
    "contexto": "Información preliminar de riesgo",
    "estructuras_zona": "Sin datos",
    "novedades": "Novedades no especificadas"
  },
  {
    "departamento": "NARIÑO",
    "municipio": "El Tambo",
    "lat": 1.407913,
    "lng": -77.390772,
    "nivel_riesgo": "medio",
    "contexto": "Información preliminar de riesgo",
    "estructuras_zona": "Sin datos",
    "novedades": "Novedades no especificadas"
  },
  {
    "departamento": "NARIÑO",
    "municipio": "Francisco Pizarro",
    "lat": 2.040629,
    "lng": -78.658361,
    "nivel_riesgo": "medio",
    "contexto": "Información preliminar de riesgo",
    "estructuras_zona": "Sin datos",
    "novedades": "Novedades no especificadas"
  },
  {
    "departamento": "NARIÑO",
    "municipio": "Funes",
    "lat": 1.001159,
    "lng": -77.448913,
    "nivel_riesgo": "medio",
    "contexto": "Información preliminar de riesgo",
    "estructuras_zona": "Sin datos",
    "novedades": "Novedades no especificadas"
  },
  {
    "departamento": "NARIÑO",
    "municipio": "Guachucal",
    "lat": 0.959744,
    "lng": -77.731589,
    "nivel_riesgo": "medio",
    "contexto": "Información preliminar de riesgo",
    "estructuras_zona": "Sin datos",
    "novedades": "Novedades no especificadas"
  },
  {
    "departamento": "NARIÑO",
    "municipio": "Guaitarilla",
    "lat": 1.129574,
    "lng": -77.549824,
    "nivel_riesgo": "medio",
    "contexto": "Información preliminar de riesgo",
    "estructuras_zona": "Sin datos",
    "novedades": "Novedades no especificadas"
  },
  {
    "departamento": "NARIÑO",
    "municipio": "Gualmatán",
    "lat": 0.919652,
    "lng": -77.568701,
    "nivel_riesgo": "medio",
    "contexto": "Información preliminar de riesgo",
    "estructuras_zona": "Sin datos",
    "novedades": "Novedades no especificadas"
  },
  {
    "departamento": "NARIÑO",
    "municipio": "Iles",
    "lat": 0.96952,
    "lng": -77.521227,
    "nivel_riesgo": "medio",
    "contexto": "Información preliminar de riesgo",
    "estructuras_zona": "Sin datos",
    "novedades": "Novedades no especificadas"
  },
  {
    "departamento": "NARIÑO",
    "municipio": "Imués",
    "lat": 1.05506,
    "lng": -77.496339,
    "nivel_riesgo": "medio",
    "contexto": "Información preliminar de riesgo",
    "estructuras_zona": "Sin datos",
    "novedades": "Novedades no especificadas"
  },
  {
    "departamento": "NARIÑO",
    "municipio": "Ipiales",
    "lat": 0.827732,
    "lng": -77.646367,
    "nivel_riesgo": "medio",
    "contexto": "Información preliminar de riesgo",
    "estructuras_zona": "Sin datos",
    "novedades": "Novedades no especificadas"
  },
  {
    "departamento": "NARIÑO",
    "municipio": "La Cruz",
    "lat": 1.601318,
    "lng": -76.970504,
    "nivel_riesgo": "medio",
    "contexto": "Información preliminar de riesgo",
    "estructuras_zona": "Sin datos",
    "novedades": "Novedades no especificadas"
  },
  {
    "departamento": "NARIÑO",
    "municipio": "La Florida",
    "lat": 1.29753,
    "lng": -77.402882,
    "nivel_riesgo": "medio",
    "contexto": "Información preliminar de riesgo",
    "estructuras_zona": "Sin datos",
    "novedades": "Novedades no especificadas"
  },
  {
    "departamento": "NARIÑO",
    "municipio": "La Llanada",
    "lat": 1.472892,
    "lng": -77.58091,
    "nivel_riesgo": "medio",
    "contexto": "Información preliminar de riesgo",
    "estructuras_zona": "Sin datos",
    "novedades": "Novedades no especificadas"
  },
  {
    "departamento": "NARIÑO",
    "municipio": "La Tola",
    "lat": 2.398999,
    "lng": -78.189725,
    "nivel_riesgo": "medio",
    "contexto": "Información preliminar de riesgo",
    "estructuras_zona": "Sin datos",
    "novedades": "Novedades no especificadas"
  },
  {
    "departamento": "NARIÑO",
    "municipio": "La Unión",
    "lat": 1.600219,
    "lng": -77.131316,
    "nivel_riesgo": "medio",
    "contexto": "Información preliminar de riesgo",
    "estructuras_zona": "Sin datos",
    "novedades": "Novedades no especificadas"
  },
  {
    "departamento": "NARIÑO",
    "municipio": "Leiva",
    "lat": 1.934453,
    "lng": -77.306135,
    "nivel_riesgo": "medio",
    "contexto": "Información preliminar de riesgo",
    "estructuras_zona": "Sin datos",
    "novedades": "Novedades no especificadas"
  },
  {
    "departamento": "NARIÑO",
    "municipio": "Linares",
    "lat": 1.350814,
    "lng": -77.523953,
    "nivel_riesgo": "medio",
    "contexto": "Información preliminar de riesgo",
    "estructuras_zona": "Sin datos",
    "novedades": "Novedades no especificadas"
  },
  {
    "departamento": "NARIÑO",
    "municipio": "Los Andes",
    "lat": 1.494587,
    "lng": -77.521303,
    "nivel_riesgo": "medio",
    "contexto": "Información preliminar de riesgo",
    "estructuras_zona": "Sin datos",
    "novedades": "Novedades no especificadas"
  },
  {
    "departamento": "NARIÑO",
    "municipio": "Magüí",
    "lat": 1.765633,
    "lng": -78.182924,
    "nivel_riesgo": "medio",
    "contexto": "Información preliminar de riesgo",
    "estructuras_zona": "Sin datos",
    "novedades": "Novedades no especificadas"
  },
  {
    "departamento": "NARIÑO",
    "municipio": "Mallama",
    "lat": 1.141037,
    "lng": -77.864549,
    "nivel_riesgo": "medio",
    "contexto": "Información preliminar de riesgo",
    "estructuras_zona": "Sin datos",
    "novedades": "Novedades no especificadas"
  },
  {
    "departamento": "NARIÑO",
    "municipio": "Mosquera",
    "lat": 2.507139,
    "lng": -78.452992,
    "nivel_riesgo": "medio",
    "contexto": "Información preliminar de riesgo",
    "estructuras_zona": "Sin datos",
    "novedades": "Novedades no especificadas"
  },
  {
    "departamento": "NARIÑO",
    "municipio": "Nariño",
    "lat": 1.288979,
    "lng": -77.357972,
    "nivel_riesgo": "medio",
    "contexto": "Información preliminar de riesgo",
    "estructuras_zona": "Sin datos",
    "novedades": "Novedades no especificadas"
  },
  {
    "departamento": "NARIÑO",
    "municipio": "Olaya Herrera",
    "lat": 2.347457,
    "lng": -78.325814,
    "nivel_riesgo": "medio",
    "contexto": "Información preliminar de riesgo",
    "estructuras_zona": "Sin datos",
    "novedades": "Novedades no especificadas"
  },
  {
    "departamento": "NARIÑO",
    "municipio": "Ospina",
    "lat": 1.058433,
    "lng": -77.566082,
    "nivel_riesgo": "medio",
    "contexto": "Información preliminar de riesgo",
    "estructuras_zona": "Sin datos",
    "novedades": "Novedades no especificadas"
  },
  {
    "departamento": "NARIÑO",
    "municipio": "Pasto",
    "lat": 1.212352,
    "lng": -77.278795,
    "nivel_riesgo": "medio",
    "contexto": "Información preliminar de riesgo",
    "estructuras_zona": "Sin datos",
    "novedades": "Novedades no especificadas"
  },
  {
    "departamento": "NARIÑO",
    "municipio": "Policarpa",
    "lat": 1.627196,
    "lng": -77.458686,
    "nivel_riesgo": "medio",
    "contexto": "Información preliminar de riesgo",
    "estructuras_zona": "Sin datos",
    "novedades": "Novedades no especificadas"
  },
  {
    "departamento": "NARIÑO",
    "municipio": "Potosí",
    "lat": 0.806639,
    "lng": -77.573003,
    "nivel_riesgo": "medio",
    "contexto": "Información preliminar de riesgo",
    "estructuras_zona": "Sin datos",
    "novedades": "Novedades no especificadas"
  },
  {
    "departamento": "NARIÑO",
    "municipio": "Providencia",
    "lat": 1.237814,
    "lng": -77.596794,
    "nivel_riesgo": "medio",
    "contexto": "Información preliminar de riesgo",
    "estructuras_zona": "Sin datos",
    "novedades": "Novedades no especificadas"
  },
  {
    "departamento": "NARIÑO",
    "municipio": "Puerres",
    "lat": 0.885125,
    "lng": -77.504211,
    "nivel_riesgo": "medio",
    "contexto": "Información preliminar de riesgo",
    "estructuras_zona": "Sin datos",
    "novedades": "Novedades no especificadas"
  },
  {
    "departamento": "NARIÑO",
    "municipio": "Pupiales",
    "lat": 0.870442,
    "lng": -77.636042,
    "nivel_riesgo": "medio",
    "contexto": "Información preliminar de riesgo",
    "estructuras_zona": "Sin datos",
    "novedades": "Novedades no especificadas"
  },
  {
    "departamento": "NARIÑO",
    "municipio": "Ricaurte",
    "lat": 1.212492,
    "lng": -77.995153,
    "nivel_riesgo": "medio",
    "contexto": "Información preliminar de riesgo",
    "estructuras_zona": "Sin datos",
    "novedades": "Novedades no especificadas"
  },
  {
    "departamento": "NARIÑO",
    "municipio": "Roberto Payán",
    "lat": 1.697492,
    "lng": -78.245716,
    "nivel_riesgo": "medio",
    "contexto": "Información preliminar de riesgo",
    "estructuras_zona": "Sin datos",
    "novedades": "Novedades no especificadas"
  },
  {
    "departamento": "NARIÑO",
    "municipio": "Samaniego",
    "lat": 1.335438,
    "lng": -77.594341,
    "nivel_riesgo": "medio",
    "contexto": "Información preliminar de riesgo",
    "estructuras_zona": "Sin datos",
    "novedades": "Novedades no especificadas"
  },
  {
    "departamento": "NARIÑO",
    "municipio": "San Andrés De Tumaco",
    "lat": 1.807399,
    "lng": -78.764073,
    "nivel_riesgo": "medio",
    "contexto": "Información preliminar de riesgo",
    "estructuras_zona": "Sin datos",
    "novedades": "Novedades no especificadas"
  },
  {
    "departamento": "NARIÑO",
    "municipio": "San Bernardo",
    "lat": 1.513762,
    "lng": -77.0475,
    "nivel_riesgo": "medio",
    "contexto": "Información preliminar de riesgo",
    "estructuras_zona": "Sin datos",
    "novedades": "Novedades no especificadas"
  },
  {
    "departamento": "NARIÑO",
    "municipio": "San Lorenzo",
    "lat": 1.503362,
    "lng": -77.21542,
    "nivel_riesgo": "medio",
    "contexto": "Información preliminar de riesgo",
    "estructuras_zona": "Sin datos",
    "novedades": "Novedades no especificadas"
  },
  {
    "departamento": "NARIÑO",
    "municipio": "San Pablo",
    "lat": 1.669429,
    "lng": -77.013984,
    "nivel_riesgo": "medio",
    "contexto": "Información preliminar de riesgo",
    "estructuras_zona": "Sin datos",
    "novedades": "Novedades no especificadas"
  },
  {
    "departamento": "NARIÑO",
    "municipio": "San Pedro De Cartago",
    "lat": 1.551572,
    "lng": -77.11941,
    "nivel_riesgo": "medio",
    "contexto": "Información preliminar de riesgo",
    "estructuras_zona": "Sin datos",
    "novedades": "Novedades no especificadas"
  },
  {
    "departamento": "NARIÑO",
    "municipio": "Sandoná",
    "lat": 1.283438,
    "lng": -77.47313,
    "nivel_riesgo": "medio",
    "contexto": "Información preliminar de riesgo",
    "estructuras_zona": "Sin datos",
    "novedades": "Novedades no especificadas"
  },
  {
    "departamento": "NARIÑO",
    "municipio": "Santa Bárbara",
    "lat": 2.449653,
    "lng": -77.979916,
    "nivel_riesgo": "medio",
    "contexto": "Información preliminar de riesgo",
    "estructuras_zona": "Sin datos",
    "novedades": "Novedades no especificadas"
  },
  {
    "departamento": "NARIÑO",
    "municipio": "Santacruz",
    "lat": 1.222589,
    "lng": -77.677035,
    "nivel_riesgo": "medio",
    "contexto": "Información preliminar de riesgo",
    "estructuras_zona": "Sin datos",
    "novedades": "Novedades no especificadas"
  },
  {
    "departamento": "NARIÑO",
    "municipio": "Sapuyes",
    "lat": 1.037536,
    "lng": -77.62028,
    "nivel_riesgo": "medio",
    "contexto": "Información preliminar de riesgo",
    "estructuras_zona": "Sin datos",
    "novedades": "Novedades no especificadas"
  },
  {
    "departamento": "NARIÑO",
    "municipio": "Taminango",
    "lat": 1.570358,
    "lng": -77.2808,
    "nivel_riesgo": "medio",
    "contexto": "Información preliminar de riesgo",
    "estructuras_zona": "Sin datos",
    "novedades": "Novedades no especificadas"
  },
  {
    "departamento": "NARIÑO",
    "municipio": "Tangua",
    "lat": 1.09482,
    "lng": -77.393735,
    "nivel_riesgo": "medio",
    "contexto": "Información preliminar de riesgo",
    "estructuras_zona": "Sin datos",
    "novedades": "Novedades no especificadas"
  },
  {
    "departamento": "NARIÑO",
    "municipio": "Túquerres",
    "lat": 1.085044,
    "lng": -77.61672,
    "nivel_riesgo": "medio",
    "contexto": "Información preliminar de riesgo",
    "estructuras_zona": "Sin datos",
    "novedades": "Novedades no especificadas"
  },
  {
    "departamento": "NARIÑO",
    "municipio": "Yacuanquer",
    "lat": 1.115937,
    "lng": -77.400169,
    "nivel_riesgo": "medio",
    "contexto": "Información preliminar de riesgo",
    "estructuras_zona": "Sin datos",
    "novedades": "Novedades no especificadas"
  },
  {
    "departamento": "VALLE DEL CAUCA",
    "municipio": "Alcalá",
    "lat": 4.674994,
    "lng": -75.779792,
    "nivel_riesgo": "medio",
    "contexto": "Información preliminar de riesgo",
    "estructuras_zona": "Sin datos",
    "novedades": "Novedades no especificadas"
  },
  {
    "departamento": "VALLE DEL CAUCA",
    "municipio": "Andalucía",
    "lat": 4.171713,
    "lng": -76.167925,
    "nivel_riesgo": "medio",
    "contexto": "Información preliminar de riesgo",
    "estructuras_zona": "Sin datos",
    "novedades": "Novedades no especificadas"
  },
  {
    "departamento": "VALLE DEL CAUCA",
    "municipio": "Ansermanuevo",
    "lat": 4.794984,
    "lng": -75.992003,
    "nivel_riesgo": "medio",
    "contexto": "Información preliminar de riesgo",
    "estructuras_zona": "Sin datos",
    "novedades": "Novedades no especificadas"
  },
  {
    "departamento": "VALLE DEL CAUCA",
    "municipio": "Argelia",
    "lat": 4.726945,
    "lng": -76.119905,
    "nivel_riesgo": "medio",
    "contexto": "Información preliminar de riesgo",
    "estructuras_zona": "Sin datos",
    "novedades": "Novedades no especificadas"
  },
  {
    "departamento": "VALLE DEL CAUCA",
    "municipio": "Bolívar",
    "lat": 4.337846,
    "lng": -76.183583,
    "nivel_riesgo": "medio",
    "contexto": "Información preliminar de riesgo",
    "estructuras_zona": "Sin datos",
    "novedades": "Novedades no especificadas"
  },
  {
    "departamento": "VALLE DEL CAUCA",
    "municipio": "Buenaventura",
    "lat": 3.875708,
    "lng": -77.01074,
    "nivel_riesgo": "medio",
    "contexto": "Información preliminar de riesgo",
    "estructuras_zona": "Sin datos",
    "novedades": "Novedades no especificadas"
  },
  {
    "departamento": "VALLE DEL CAUCA",
    "municipio": "Bugalagrande",
    "lat": 4.208358,
    "lng": -76.15682,
    "nivel_riesgo": "medio",
    "contexto": "Información preliminar de riesgo",
    "estructuras_zona": "Sin datos",
    "novedades": "Novedades no especificadas"
  },
  {
    "departamento": "VALLE DEL CAUCA",
    "municipio": "Caicedonia",
    "lat": 4.334808,
    "lng": -75.830594,
    "nivel_riesgo": "medio",
    "contexto": "Información preliminar de riesgo",
    "estructuras_zona": "Sin datos",
    "novedades": "Novedades no especificadas"
  },
  {
    "departamento": "VALLE DEL CAUCA",
    "municipio": "Calima",
    "lat": 3.933664,
    "lng": -76.484132,
    "nivel_riesgo": "medio",
    "contexto": "Información preliminar de riesgo",
    "estructuras_zona": "Sin datos",
    "novedades": "Novedades no especificadas"
  },
  {
    "departamento": "VALLE DEL CAUCA",
    "municipio": "Candelaria",
    "lat": 3.408354,
    "lng": -76.346519,
    "nivel_riesgo": "medio",
    "contexto": "Información preliminar de riesgo",
    "estructuras_zona": "Sin datos",
    "novedades": "Novedades no especificadas"
  },
  {
    "departamento": "VALLE DEL CAUCA",
    "municipio": "Cartago",
    "lat": 4.742192,
    "lng": -75.924374,
    "nivel_riesgo": "medio",
    "contexto": "Información preliminar de riesgo",
    "estructuras_zona": "Sin datos",
    "novedades": "Novedades no especificadas"
  },
  {
    "departamento": "VALLE DEL CAUCA",
    "municipio": "Dagua",
    "lat": 3.657318,
    "lng": -76.68886,
    "nivel_riesgo": "medio",
    "contexto": "Información preliminar de riesgo",
    "estructuras_zona": "Sin datos",
    "novedades": "Novedades no especificadas"
  },
  {
    "departamento": "VALLE DEL CAUCA",
    "municipio": "El Águila",
    "lat": 4.906062,
    "lng": -76.042779,
    "nivel_riesgo": "medio",
    "contexto": "Información preliminar de riesgo",
    "estructuras_zona": "Sin datos",
    "novedades": "Novedades no especificadas"
  },
  {
    "departamento": "VALLE DEL CAUCA",
    "municipio": "El Cairo",
    "lat": 4.760874,
    "lng": -76.221611,
    "nivel_riesgo": "medio",
    "contexto": "Información preliminar de riesgo",
    "estructuras_zona": "Sin datos",
    "novedades": "Novedades no especificadas"
  },
  {
    "departamento": "VALLE DEL CAUCA",
    "municipio": "El Cerrito",
    "lat": 3.684229,
    "lng": -76.311972,
    "nivel_riesgo": "medio",
    "contexto": "Información preliminar de riesgo",
    "estructuras_zona": "Sin datos",
    "novedades": "Novedades no especificadas"
  },
  {
    "departamento": "VALLE DEL CAUCA",
    "municipio": "El Dovio",
    "lat": 4.510452,
    "lng": -76.237084,
    "nivel_riesgo": "medio",
    "contexto": "Información preliminar de riesgo",
    "estructuras_zona": "Sin datos",
    "novedades": "Novedades no especificadas"
  },
  {
    "departamento": "VALLE DEL CAUCA",
    "municipio": "Florida",
    "lat": 3.324118,
    "lng": -76.234199,
    "nivel_riesgo": "medio",
    "contexto": "Información preliminar de riesgo",
    "estructuras_zona": "Sin datos",
    "novedades": "Novedades no especificadas"
  },
  {
    "departamento": "VALLE DEL CAUCA",
    "municipio": "Ginebra",
    "lat": 3.724181,
    "lng": -76.268068,
    "nivel_riesgo": "medio",
    "contexto": "Información preliminar de riesgo",
    "estructuras_zona": "Sin datos",
    "novedades": "Novedades no especificadas"
  },
  {
    "departamento": "VALLE DEL CAUCA",
    "municipio": "Guacarí",
    "lat": 3.761815,
    "lng": -76.330911,
    "nivel_riesgo": "medio",
    "contexto": "Información preliminar de riesgo",
    "estructuras_zona": "Sin datos",
    "novedades": "Novedades no especificadas"
  },
  {
    "departamento": "VALLE DEL CAUCA",
    "municipio": "Guadalajara De Buga",
    "lat": 3.900736,
    "lng": -76.298979,
    "nivel_riesgo": "medio",
    "contexto": "Información preliminar de riesgo",
    "estructuras_zona": "Sin datos",
    "novedades": "Novedades no especificadas"
  },
  {
    "departamento": "VALLE DEL CAUCA",
    "municipio": "Jamundí",
    "lat": 3.258751,
    "lng": -76.538472,
    "nivel_riesgo": "medio",
    "contexto": "Información preliminar de riesgo",
    "estructuras_zona": "Sin datos",
    "novedades": "Novedades no especificadas"
  },
  {
    "departamento": "VALLE DEL CAUCA",
    "municipio": "La Cumbre",
    "lat": 3.649268,
    "lng": -76.56805,
    "nivel_riesgo": "medio",
    "contexto": "Información preliminar de riesgo",
    "estructuras_zona": "Sin datos",
    "novedades": "Novedades no especificadas"
  },
  {
    "departamento": "VALLE DEL CAUCA",
    "municipio": "La Unión",
    "lat": 4.533869,
    "lng": -76.099661,
    "nivel_riesgo": "medio",
    "contexto": "Información preliminar de riesgo",
    "estructuras_zona": "Sin datos",
    "novedades": "Novedades no especificadas"
  },
  {
    "departamento": "VALLE DEL CAUCA",
    "municipio": "La Victoria",
    "lat": 4.523603,
    "lng": -76.036529,
    "nivel_riesgo": "medio",
    "contexto": "Información preliminar de riesgo",
    "estructuras_zona": "Sin datos",
    "novedades": "Novedades no especificadas"
  },
  {
    "departamento": "VALLE DEL CAUCA",
    "municipio": "Obando",
    "lat": 4.575712,
    "lng": -75.974709,
    "nivel_riesgo": "medio",
    "contexto": "Información preliminar de riesgo",
    "estructuras_zona": "Sin datos",
    "novedades": "Novedades no especificadas"
  },
  {
    "departamento": "VALLE DEL CAUCA",
    "municipio": "Palmira",
    "lat": 3.531544,
    "lng": -76.298846,
    "nivel_riesgo": "medio",
    "contexto": "Información preliminar de riesgo",
    "estructuras_zona": "Sin datos",
    "novedades": "Novedades no especificadas"
  },
  {
    "departamento": "VALLE DEL CAUCA",
    "municipio": "Pradera",
    "lat": 3.419793,
    "lng": -76.241799,
    "nivel_riesgo": "medio",
    "contexto": "Información preliminar de riesgo",
    "estructuras_zona": "Sin datos",
    "novedades": "Novedades no especificadas"
  },
  {
    "departamento": "VALLE DEL CAUCA",
    "municipio": "Restrepo",
    "lat": 3.821351,
    "lng": -76.523329,
    "nivel_riesgo": "medio",
    "contexto": "Información preliminar de riesgo",
    "estructuras_zona": "Sin datos",
    "novedades": "Novedades no especificadas"
  },
  {
    "departamento": "VALLE DEL CAUCA",
    "municipio": "Riofrío",
    "lat": 4.156908,
    "lng": -76.288313,
    "nivel_riesgo": "medio",
    "contexto": "Información preliminar de riesgo",
    "estructuras_zona": "Sin datos",
    "novedades": "Novedades no especificadas"
  },
  {
    "departamento": "VALLE DEL CAUCA",
    "municipio": "Roldanillo",
    "lat": 4.413601,
    "lng": -76.152277,
    "nivel_riesgo": "medio",
    "contexto": "Información preliminar de riesgo",
    "estructuras_zona": "Sin datos",
    "novedades": "Novedades no especificadas"
  },
  {
    "departamento": "VALLE DEL CAUCA",
    "municipio": "San Pedro",
    "lat": 3.995073,
    "lng": -76.228692,
    "nivel_riesgo": "medio",
    "contexto": "Información preliminar de riesgo",
    "estructuras_zona": "Sin datos",
    "novedades": "Novedades no especificadas"
  },
  {
    "departamento": "VALLE DEL CAUCA",
    "municipio": "Santiago De Cali",
    "lat": 3.413686,
    "lng": -76.52133,
    "nivel_riesgo": "medio",
    "contexto": "Información preliminar de riesgo",
    "estructuras_zona": "Sin datos",
    "novedades": "Novedades no especificadas"
  },
  {
    "departamento": "VALLE DEL CAUCA",
    "municipio": "Sevilla",
    "lat": 4.270714,
    "lng": -75.931629,
    "nivel_riesgo": "medio",
    "contexto": "Información preliminar de riesgo",
    "estructuras_zona": "Sin datos",
    "novedades": "Novedades no especificadas"
  },
  {
    "departamento": "VALLE DEL CAUCA",
    "municipio": "Toro",
    "lat": 4.608085,
    "lng": -76.076859,
    "nivel_riesgo": "medio",
    "contexto": "Información preliminar de riesgo",
    "estructuras_zona": "Sin datos",
    "novedades": "Novedades no especificadas"
  },
  {
    "departamento": "VALLE DEL CAUCA",
    "municipio": "Trujillo",
    "lat": 4.212037,
    "lng": -76.318818,
    "nivel_riesgo": "medio",
    "contexto": "Información preliminar de riesgo",
    "estructuras_zona": "Sin datos",
    "novedades": "Novedades no especificadas"
  },
  {
    "departamento": "VALLE DEL CAUCA",
    "municipio": "Tuluá",
    "lat": 4.085399,
    "lng": -76.197731,
    "nivel_riesgo": "medio",
    "contexto": "Información preliminar de riesgo",
    "estructuras_zona": "Sin datos",
    "novedades": "Novedades no especificadas"
  },
  {
    "departamento": "VALLE DEL CAUCA",
    "municipio": "Ulloa",
    "lat": 4.703623,
    "lng": -75.737808,
    "nivel_riesgo": "medio",
    "contexto": "Información preliminar de riesgo",
    "estructuras_zona": "Sin datos",
    "novedades": "Novedades no especificadas"
  },
  {
    "departamento": "VALLE DEL CAUCA",
    "municipio": "Versalles",
    "lat": 4.575019,
    "lng": -76.199203,
    "nivel_riesgo": "medio",
    "contexto": "Información preliminar de riesgo",
    "estructuras_zona": "Sin datos",
    "novedades": "Novedades no especificadas"
  },
  {
    "departamento": "VALLE DEL CAUCA",
    "municipio": "Vijes",
    "lat": 3.698686,
    "lng": -76.441804,
    "nivel_riesgo": "medio",
    "contexto": "Información preliminar de riesgo",
    "estructuras_zona": "Sin datos",
    "novedades": "Novedades no especificadas"
  },
  {
    "departamento": "VALLE DEL CAUCA",
    "municipio": "Yotoco",
    "lat": 3.861241,
    "lng": -76.382698,
    "nivel_riesgo": "medio",
    "contexto": "Información preliminar de riesgo",
    "estructuras_zona": "Sin datos",
    "novedades": "Novedades no especificadas"
  },
  {
    "departamento": "VALLE DEL CAUCA",
    "municipio": "Yumbo",
    "lat": 3.540097,
    "lng": -76.499893,
    "nivel_riesgo": "medio",
    "contexto": "Información preliminar de riesgo",
    "estructuras_zona": "Sin datos",
    "novedades": "Novedades no especificadas"
  },
  {
    "departamento": "VALLE DEL CAUCA",
    "municipio": "Zarzal",
    "lat": 4.392658,
    "lng": -76.070795,
    "nivel_riesgo": "medio",
    "contexto": "Información preliminar de riesgo",
    "estructuras_zona": "Sin datos",
    "novedades": "Novedades no especificadas"
  },
  {
    "departamento": "Chocó",
    "municipio": "Quibdó",
    "nivel_riesgo": "Crítico",
    "contexto": "Sin información",
    "novedades": "Sin información",
    "estructuras_zona": "ELN",
    "lat": 5.682166,
    "lng": -76.638144
  },
  {
    "departamento": "Chocó",
    "municipio": "Acandí",
    "nivel_riesgo": "Crítico",
    "contexto": "Sin información",
    "novedades": "Sin información",
    "estructuras_zona": "ELN",
    "lat": 8.512178,
    "lng": -77.279951
  },
  {
    "departamento": "Chocó",
    "municipio": "Alto Baudó",
    "nivel_riesgo": "Moderado",
    "contexto": "Sin información",
    "novedades": "Sin información",
    "estructuras_zona": "ELN",
    "lat": 5.516221,
    "lng": -76.974373
  },
  {
    "departamento": "Chocó",
    "municipio": "Atrato",
    "nivel_riesgo": "Moderado",
    "contexto": "Sin información",
    "novedades": "Sin información",
    "estructuras_zona": "ELN",
    "lat": 5.531419,
    "lng": -76.635674
  },
  {
    "departamento": "Chocó",
    "municipio": "Bagadó",
    "nivel_riesgo": "Crítico",
    "contexto": "Sin información",
    "novedades": "Sin información",
    "estructuras_zona": "ELN",
    "lat": 5.409681,
    "lng": -76.416063
  },
  {
    "departamento": "Chocó",
    "municipio": "Bahía Solano",
    "nivel_riesgo": "Moderado",
    "contexto": "Sin información",
    "novedades": "Sin información",
    "estructuras_zona": "ELN",
    "lat": 6.222807,
    "lng": -77.401359
  },
  {
    "departamento": "Chocó",
    "municipio": "Bajo Baudó",
    "nivel_riesgo": "Bajo",
    "contexto": "Sin información",
    "novedades": "Sin información",
    "estructuras_zona": "ELN",
    "lat": 4.954576,
    "lng": -77.365717
  },
  {
    "departamento": "Chocó",
    "municipio": "Bojayá",
    "nivel_riesgo": "Moderado",
    "contexto": "Sin información",
    "novedades": "Sin información",
    "estructuras_zona": "ELN",
    "lat": 6.559708,
    "lng": -76.886773
  },
  {
    "departamento": "Chocó",
    "municipio": "El Cantón Del San Pablo",
    "nivel_riesgo": "Crítico",
    "contexto": "Sin información",
    "novedades": "Sin información",
    "estructuras_zona": "ELN",
    "lat": 5.335321,
    "lng": -76.726844
  },
  {
    "departamento": "Chocó",
    "municipio": "Carmen Del Darién",
    "nivel_riesgo": "Crítico",
    "contexto": "Sin información",
    "novedades": "Sin información",
    "estructuras_zona": "ELN",
    "lat": 7.158294,
    "lng": -76.970798
  },
  {
    "departamento": "Chocó",
    "municipio": "Cértegui",
    "nivel_riesgo": "Crítico",
    "contexto": "Sin información",
    "novedades": "Sin información",
    "estructuras_zona": "ELN",
    "lat": 5.371373,
    "lng": -76.607619
  },
  {
    "departamento": "Chocó",
    "municipio": "Condoto",
    "nivel_riesgo": "Crítico",
    "contexto": "Sin información",
    "novedades": "Sin información",
    "estructuras_zona": "ELN",
    "lat": 5.091003,
    "lng": -76.650683
  },
  {
    "departamento": "Chocó",
    "municipio": "El Carmen De Atrato",
    "nivel_riesgo": "Moderado",
    "contexto": "Sin información",
    "novedades": "Sin información",
    "estructuras_zona": "ELN",
    "lat": 5.899789,
    "lng": -76.142112
  },
  {
    "departamento": "Chocó",
    "municipio": "El Litoral Del San Juan",
    "nivel_riesgo": "Crítico",
    "contexto": "Sin información",
    "novedades": "Sin información",
    "estructuras_zona": "ELN",
    "lat": 4.259564,
    "lng": -77.363702
  },
  {
    "departamento": "Chocó",
    "municipio": "Istmina",
    "nivel_riesgo": "Bajo",
    "contexto": "Sin información",
    "novedades": "Sin información",
    "estructuras_zona": "ELN",
    "lat": 5.153946,
    "lng": -76.68518
  },
  {
    "departamento": "Chocó",
    "municipio": "Juradó",
    "nivel_riesgo": "Crítico",
    "contexto": "Sin información",
    "novedades": "Sin información",
    "estructuras_zona": "ELN",
    "lat": 7.103619,
    "lng": -77.762751
  },
  {
    "departamento": "Chocó",
    "municipio": "Lloró",
    "nivel_riesgo": "Moderado",
    "contexto": "Sin información",
    "novedades": "Sin información",
    "estructuras_zona": "ELN",
    "lat": 5.49789,
    "lng": -76.545147
  },
  {
    "departamento": "Chocó",
    "municipio": "Medio Atrato",
    "nivel_riesgo": "Crítico",
    "contexto": "Sin información",
    "novedades": "Sin información",
    "estructuras_zona": "ELN",
    "lat": 5.994935,
    "lng": -76.783042
  },
  {
    "departamento": "Chocó",
    "municipio": "Medio Baudó",
    "nivel_riesgo": "Crítico",
    "contexto": "Sin información",
    "novedades": "Sin información",
    "estructuras_zona": "ELN",
    "lat": 5.192471,
    "lng": -76.950891
  },
  {
    "departamento": "Chocó",
    "municipio": "Medio San Juan",
    "nivel_riesgo": "Crítico",
    "contexto": "Sin información",
    "novedades": "Sin información",
    "estructuras_zona": "ELN",
    "lat": 5.098291,
    "lng": -76.694409
  },
  {
    "departamento": "Chocó",
    "municipio": "Nóvita",
    "nivel_riesgo": "Crítico",
    "contexto": "Sin información",
    "novedades": "Sin información",
    "estructuras_zona": "ELN",
    "lat": 4.956063,
    "lng": -76.609467
  },
  {
    "departamento": "Chocó",
    "municipio": "Nuevo Belén De Bajirá",
    "nivel_riesgo": "Crítico",
    "contexto": "Sin información",
    "novedades": "Sin información",
    "estructuras_zona": "ELN",
    "lat": 7.3719,
    "lng": -76.71727
  },
  {
    "departamento": "Chocó",
    "municipio": "Nuquí",
    "nivel_riesgo": "Crítico",
    "contexto": "Sin información",
    "novedades": "Sin información",
    "estructuras_zona": "ELN",
    "lat": 5.709812,
    "lng": -77.265507
  },
  {
    "departamento": "Chocó",
    "municipio": "Río Iró",
    "nivel_riesgo": "Crítico",
    "contexto": "Sin información",
    "novedades": "Sin información",
    "estructuras_zona": "ELN",
    "lat": 5.1863,
    "lng": -76.472925
  },
  {
    "departamento": "Chocó",
    "municipio": "Río Quito",
    "nivel_riesgo": "Crítico",
    "contexto": "Sin información",
    "novedades": "Sin información",
    "estructuras_zona": "ELN",
    "lat": 5.483667,
    "lng": -76.740684
  },
  {
    "departamento": "Chocó",
    "municipio": "Riosucio",
    "nivel_riesgo": "Moderado",
    "contexto": "Sin información",
    "novedades": "Sin información",
    "estructuras_zona": "ELN",
    "lat": 7.436704,
    "lng": -77.113156
  },
  {
    "departamento": "Chocó",
    "municipio": "San José Del Palmar",
    "nivel_riesgo": "Moderado",
    "contexto": "Sin información",
    "novedades": "Sin información",
    "estructuras_zona": "ELN",
    "lat": 4.896954,
    "lng": -76.234227
  },
  {
    "departamento": "Chocó",
    "municipio": "Sipí",
    "nivel_riesgo": "Moderado",
    "contexto": "Sin información",
    "novedades": "Sin información",
    "estructuras_zona": "ELN",
    "lat": 4.65262,
    "lng": -76.643453
  },
  {
    "departamento": "Chocó",
    "municipio": "Tadó",
    "nivel_riesgo": "Moderado",
    "contexto": "Sin información",
    "novedades": "Sin información",
    "estructuras_zona": "ELN",
    "lat": 5.264873,
    "lng": -76.558571
  },
  {
    "departamento": "Chocó",
    "municipio": "Unguía",
    "nivel_riesgo": "Moderado",
    "contexto": "Sin información",
    "novedades": "Sin información",
    "estructuras_zona": "ELN",
    "lat": 8.04406,
    "lng": -77.092538
  },
  {
    "departamento": "Chocó",
    "municipio": "Unión Panamericana",
    "nivel_riesgo": "Moderado",
    "contexto": "Sin información",
    "novedades": "Sin información",
    "estructuras_zona": "ELN",
    "lat": 5.281108,
    "lng": -76.630143
  }
]